[{"datasetid": "smileygodkanda-platser-i-helsingborg", "recordid": "5f1ccc2c25bb1f2c366ca76f44be403e93d30f43", "fields": {"objectid": 73, "adress": "REKTORSGATAN 11B", "geo_point_2d": [56.05450174402862, 12.702042878139657], "namn": "ALDAS KONDITORI & CAF\u00c9", "kategori_text": "Caf\u00e9", "fastighet": "KLOSTRET 20", "geo_shape": {"type": "Point", "coordinates": [12.702042878139657, 56.05450174402862]}, "kategori": "CAFE", "hemsida": "www.aldas.se"}, "geometry": {"type": "Point", "coordinates": [12.702042878139657, 56.05450174402862]}, "record_timestamp": "2018-07-25T13:18:00+02:00"},{"datasetid": "smileygodkanda-platser-i-helsingborg", "recordid": "d6dd57e93e257908207f472ff232d132cab2a25d", "fields": {"objectid": 165, "adress": "MELLERSTA STENBOCKSGATAN 12", "geo_point_2d": [56.053476207097575, 12.707909013352912], "namn": "OLYMPIARINKENS CAFETERIA", "kategori_text": "Caf\u00e9", "fastighet": "FILBORNA 28:1", "geo_shape": {"type": "Point", "coordinates": [12.707909013352912, 56.053476207097575]}, "kategori": "CAFE", "hemsida": "www.helsingborgshockey.se"}, "geometry": {"type": "Point", "coordinates": [12.707909013352912, 56.053476207097575]}, "record_timestamp": "2018-07-25T13:18:00+02:00"},{"datasetid": "smileygodkanda-platser-i-helsingborg", "recordid": "30a23b19a3f2a142e7872d8aa8c9650f8914ce26", "fields": {"objectid": 181, "geo_point_2d": [56.11181117963978, 12.789174821556488], "namn": "FLENINGE F\u00d6RSAMLINGSHEM", "kategori_text": "Caf\u00e9", "fastighet": "FLENINGE 8:8", "geo_shape": {"type": "Point", "coordinates": [12.789174821556488, 56.11181117963978]}, "kategori": "CAFE", "adress": "MAGNERUPSV\u00c4GEN 15"}, "geometry": {"type": "Point", "coordinates": [12.789174821556488, 56.11181117963978]}, "record_timestamp": "2018-07-25T13:18:00+02:00"},{"datasetid": "smileygodkanda-platser-i-helsingborg", "recordid": "8c0681a39fd748c636312f19afab07182e2aea1f", "fields": {"objectid": 192, "adress": "GRUSTAGSGATAN 2", "geo_point_2d": [56.06707233128625, 12.748034558437524], "namn": "FRAMTID", "kategori_text": "Caf\u00e9", "fastighet": "GRUSVAGNEN 2", "geo_shape": {"type": "Point", "coordinates": [12.748034558437524, 56.06707233128625]}, "kategori": "CAFE", "hemsida": "www.framtid-hbg.se"}, "geometry": {"type": "Point", "coordinates": [12.748034558437524, 56.06707233128625]}, "record_timestamp": "2018-07-25T13:18:00+02:00"},{"datasetid": "smileygodkanda-platser-i-helsingborg", "recordid": "f0a3b2f66965eb62d25ccb0361fa6a8d61212ace", "fields": {"objectid": 199, "geo_point_2d": [56.092055303612554, 12.756816380156886], "namn": "COFFEE HOUSE BY GEORGE", "kategori_text": "Caf\u00e9", "fastighet": "V\u00c4LAMARKNADEN 3", "geo_shape": {"type": "Point", "coordinates": [12.756816380156886, 56.092055303612554]}, "kategori": "CAFE", "adress": "MARKNADSV\u00c4GEN 9"}, "geometry": {"type": "Point", "coordinates": [12.756816380156886, 56.092055303612554]}, "record_timestamp": "2018-07-25T13:18:00+02:00"},{"datasetid": "smileygodkanda-platser-i-helsingborg", "recordid": "6eccff24026cec5c62a1e137c54adfc187e8392a", "fields": {"objectid": 66, "adress": "\u00d6STRABYV\u00c4GEN 10", "geo_point_2d": [56.142732548612095, 12.790731767829321], "namn": "KATTARPS F\u00d6RSAMLINGSHEM", "kategori_text": "Caf\u00e9", "fastighet": "KATTARP 30:1", "geo_shape": {"type": "Point", "coordinates": [12.790731767829321, 56.142732548612095]}, "kategori": "CAFE", "hemsida": "www.svenskakyrkan.se/allerum"}, "geometry": {"type": "Point", "coordinates": [12.790731767829321, 56.142732548612095]}, "record_timestamp": "2018-07-25T13:18:00+02:00"},{"datasetid": "smileygodkanda-platser-i-helsingborg", "recordid": "255fa5361551a8eb4554d1cfe338a649bdba468f", "fields": {"objectid": 84, "geo_point_2d": [55.9587625563035, 12.785025781571928], "namn": "RYDEB\u00c4CKS RUM & FRUKOST O STUGUTHYR", "kategori_text": "Caf\u00e9", "fastighet": "\u00d6RBY 16:5", "geo_shape": {"type": "Point", "coordinates": [12.785025781571928, 55.9587625563035]}, "kategori": "CAFE", "adress": "KLOSTERV\u00c4GEN 90"}, "geometry": {"type": "Point", "coordinates": [12.785025781571928, 55.9587625563035]}, "record_timestamp": "2018-07-25T13:18:00+02:00"},{"datasetid": "smileygodkanda-platser-i-helsingborg", "recordid": "c38de823a57bc25f0e2fd92260bc6f9e56bfb1fe", "fields": {"objectid": 89, "geo_point_2d": [56.096394851912244, 12.647486121090555], "namn": "ANDREASG\u00c5RDEN", "kategori_text": "Caf\u00e9", "fastighet": "SOLLIDEN 1", "geo_shape": {"type": "Point", "coordinates": [12.647486121090555, 56.096394851912244]}, "kategori": "CAFE", "adress": "HITTARPSV\u00c4GEN 5"}, "geometry": {"type": "Point", "coordinates": [12.647486121090555, 56.096394851912244]}, "record_timestamp": "2018-07-25T13:18:00+02:00"},{"datasetid": "smileygodkanda-platser-i-helsingborg", "recordid": "c20ae1e624950008afb71f08561d887374e26a3c", "fields": {"objectid": 92, "geo_point_2d": [56.04315672665148, 12.695715285928848], "namn": "STADSBYGGNADSHUSETS CAFETERIA", "kategori_text": "Caf\u00e9", "fastighet": "TERMINALEN 5", "geo_shape": {"type": "Point", "coordinates": [12.695715285928848, 56.04315672665148]}, "kategori": "CAFE", "adress": "J\u00c4RNV\u00c4GSGATAN 22"}, "geometry": {"type": "Point", "coordinates": [12.695715285928848, 56.04315672665148]}, "record_timestamp": "2018-07-25T13:18:00+02:00"},{"datasetid": "smileygodkanda-platser-i-helsingborg", "recordid": "fd3285e93f373ec85c48c5fbaa045a1b225882e5", "fields": {"objectid": 126, "geo_point_2d": [56.04032340971439, 12.70497216887516], "namn": "S\u00d6DERS LUNCHCAF\u00c9", "kategori_text": "Caf\u00e9", "fastighet": "TYSKLAND 26", "geo_shape": {"type": "Point", "coordinates": [12.70497216887516, 56.04032340971439]}, "kategori": "CAFE", "adress": "NEDRE HOLL\u00c4NDAREGATAN 24"}, "geometry": {"type": "Point", "coordinates": [12.70497216887516, 56.04032340971439]}, "record_timestamp": "2018-07-25T13:18:00+02:00"},{"datasetid": "smileygodkanda-platser-i-helsingborg", "recordid": "bc0c73ee9d90a908b022289c358cc0385b8a967d", "fields": {"objectid": 153, "geo_point_2d": [56.05199043615535, 12.68615414528755], "namn": "T\u00c5GA GLASS / SIA GLASS", "kategori_text": "Caf\u00e9", "fastighet": "KRISTINEHALL 8", "geo_shape": {"type": "Point", "coordinates": [12.68615414528755, 56.05199043615535]}, "kategori": "CAFE", "adress": "T\u00c5GAGATAN 2"}, "geometry": {"type": "Point", "coordinates": [12.68615414528755, 56.05199043615535]}, "record_timestamp": "2018-07-25T13:18:00+02:00"},{"datasetid": "smileygodkanda-platser-i-helsingborg", "recordid": "86c5d53eccecf01f7848b65d03e6813693fd0701", "fields": {"objectid": 194, "geo_point_2d": [56.03159363320275, 12.709029284990509], "namn": "DE HEML\u00d6SAS HUS", "kategori_text": "Caf\u00e9", "fastighet": "JAPAN 4", "geo_shape": {"type": "Point", "coordinates": [12.709029284990509, 56.03159363320275]}, "kategori": "CAFE", "adress": "V\u00c4STRA SANDGATAN 15"}, "geometry": {"type": "Point", "coordinates": [12.709029284990509, 56.03159363320275]}, "record_timestamp": "2018-07-25T13:18:00+02:00"},{"datasetid": "smileygodkanda-platser-i-helsingborg", "recordid": "2f63b6004e08b22667e38f6d7d58c9ce070785a0", "fields": {"objectid": 197, "adress": "KUNGSTORGET 8", "geo_point_2d": [56.04446574982178, 12.693987122248929], "namn": "ESPRESSO HOUSE", "kategori_text": "Caf\u00e9", "fastighet": "TERMINALEN 1", "geo_shape": {"type": "Point", "coordinates": [12.693987122248929, 56.04446574982178]}, "kategori": "CAFE", "hemsida": "www.espressohouse.se"}, "geometry": {"type": "Point", "coordinates": [12.693987122248929, 56.04446574982178]}, "record_timestamp": "2018-07-25T13:18:00+02:00"},{"datasetid": "smileygodkanda-platser-i-helsingborg", "recordid": "25964b051efd16e5b8d2f12b8c0d1a4b340d8993", "fields": {"objectid": 34, "geo_point_2d": [56.04501145548368, 12.69639708823239], "namn": "EBBAS FIK", "kategori_text": "Caf\u00e9", "fastighet": "THALIA 14", "geo_shape": {"type": "Point", "coordinates": [12.69639708823239, 56.04501145548368]}, "kategori": "CAFE", "adress": "BRUKSGATAN 20"}, "geometry": {"type": "Point", "coordinates": [12.69639708823239, 56.04501145548368]}, "record_timestamp": "2018-07-25T13:18:00+02:00"},{"datasetid": "smileygodkanda-platser-i-helsingborg", "recordid": "d7387b9ce5efd66331c1389ef07b15d451a30877", "fields": {"objectid": 124, "geo_point_2d": [56.04762917851554, 12.697034439112635], "namn": "T\u00c5GAGLASS K\u00c4RNAN", "kategori_text": "Caf\u00e9", "fastighet": "GAMLA STADEN 8:2", "geo_shape": {"type": "Point", "coordinates": [12.697034439112635, 56.04762917851554]}, "kategori": "CAFE", "adress": "SLOTTSHAGSGATAN 1"}, "geometry": {"type": "Point", "coordinates": [12.697034439112635, 56.04762917851554]}, "record_timestamp": "2018-07-25T13:18:00+02:00"},{"datasetid": "smileygodkanda-platser-i-helsingborg", "recordid": "369bd8a75b1fb4b3d43f522695c2d1e545e32771", "fields": {"objectid": 136, "geo_point_2d": [56.04742818618629, 12.69124574976752], "namn": "BAGELSHOPEN", "kategori_text": "Caf\u00e9", "fastighet": "NAJADEN 14", "geo_shape": {"type": "Point", "coordinates": [12.69124574976752, 56.04742818618629]}, "kategori": "CAFE", "adress": "DROTTNINGGATAN 11"}, "geometry": {"type": "Point", "coordinates": [12.69124574976752, 56.04742818618629]}, "record_timestamp": "2018-07-25T13:18:00+02:00"},{"datasetid": "smileygodkanda-platser-i-helsingborg", "recordid": "2eda912d473a9f606bf84c0f3f9177662b10a20d", "fields": {"objectid": 170, "geo_point_2d": [56.04521983492032, 12.697869747075321], "namn": "R\u00d6DA KVARN", "kategori_text": "Caf\u00e9", "fastighet": "KARL XI NORRA 5", "geo_shape": {"type": "Point", "coordinates": [12.697869747075321, 56.04521983492032]}, "kategori": "CAFE", "adress": "KARLSGATAN 7"}, "geometry": {"type": "Point", "coordinates": [12.697869747075321, 56.04521983492032]}, "record_timestamp": "2018-07-25T13:18:00+02:00"},{"datasetid": "smileygodkanda-platser-i-helsingborg", "recordid": "5b29af2195efba819a69e7c4d9c434fa8fb208fb", "fields": {"objectid": 171, "adress": "DAG HAMMARSKJ\u00d6LDS V\u00c4G 2", "geo_point_2d": [56.06456396406958, 12.679953295292394], "namn": "P\u00c5LSJ\u00d6PAVILJONGEN", "kategori_text": "Caf\u00e9", "fastighet": "P\u00c5LSJ\u00d6 1:1", "geo_shape": {"type": "Point", "coordinates": [12.679953295292394, 56.06456396406958]}, "kategori": "CAFE", "hemsida": "www.paviljongen.com"}, "geometry": {"type": "Point", "coordinates": [12.679953295292394, 56.06456396406958]}, "record_timestamp": "2018-07-25T13:18:00+02:00"},{"datasetid": "smileygodkanda-platser-i-helsingborg", "recordid": "c46936aa886ca60d132ceb0fbea78fb527a43265", "fields": {"objectid": 173, "geo_point_2d": [56.057496799403864, 12.709834820224605], "namn": "FREDRIKSDALSTEATERN HELSINGBORG", "kategori_text": "Caf\u00e9", "fastighet": "FILBORNA 29:1", "geo_shape": {"type": "Point", "coordinates": [12.709834820224605, 56.057496799403864]}, "kategori": "CAFE", "adress": "GISELA TRAPPS V\u00c4G 13"}, "geometry": {"type": "Point", "coordinates": [12.709834820224605, 56.057496799403864]}, "record_timestamp": "2018-07-25T13:18:00+02:00"},{"datasetid": "smileygodkanda-platser-i-helsingborg", "recordid": "834ea9edb216cbceb08160f970965d457ee39392", "fields": {"objectid": 214, "geo_point_2d": [56.06510736557569, 12.708963050792228], "namn": "FITNESS KITCHEN/ STUDIO AKTIVERUM", "kategori_text": "Caf\u00e9", "fastighet": "MIMER 12", "geo_shape": {"type": "Point", "coordinates": [12.708963050792228, 56.06510736557569]}, "kategori": "CAFE", "adress": "S\u00d6DRA TV\u00c4RG\u00c5NGEN 3"}, "geometry": {"type": "Point", "coordinates": [12.708963050792228, 56.06510736557569]}, "record_timestamp": "2018-07-25T13:18:00+02:00"},{"datasetid": "smileygodkanda-platser-i-helsingborg", "recordid": "b8bf9be10120157f5e3bbfea4027c2e5dec8ac37", "fields": {"objectid": 67, "geo_point_2d": [56.01976591278275, 12.799400058629205], "namn": "V\u00c4LLUVS F\u00d6RSAMLINGSHEM", "kategori_text": "Caf\u00e9", "fastighet": "V\u00c4LLUV 13:1", "geo_shape": {"type": "Point", "coordinates": [12.799400058629205, 56.01976591278275]}, "kategori": "CAFE", "adress": "V\u00c4LLUVSV\u00c4GEN 24"}, "geometry": {"type": "Point", "coordinates": [12.799400058629205, 56.01976591278275]}, "record_timestamp": "2018-07-25T13:18:00+02:00"},{"datasetid": "smileygodkanda-platser-i-helsingborg", "recordid": "965b646c0f829cf10e92ad21ea2615f45c6c8ad4", "fields": {"objectid": 98, "adress": "MARKNADSV\u00c4GEN 9", "geo_point_2d": [56.092055303612554, 12.756816380156886], "namn": "AMERICAN SPIN CREAM", "kategori_text": "Caf\u00e9", "fastighet": "V\u00c4LAMARKNADEN 3", "geo_shape": {"type": "Point", "coordinates": [12.756816380156886, 56.092055303612554]}, "kategori": "CAFE", "hemsida": "www.americanspincream.se"}, "geometry": {"type": "Point", "coordinates": [12.756816380156886, 56.092055303612554]}, "record_timestamp": "2018-07-25T13:18:00+02:00"},{"datasetid": "smileygodkanda-platser-i-helsingborg", "recordid": "9edb671fec496e84f8c4888c070a9e400f39a8f5", "fields": {"objectid": 132, "geo_point_2d": [56.047224952675066, 12.691404441330148], "namn": "DAGLIG VERKSAMHET ATELJ\u00c9 CITY", "kategori_text": "Caf\u00e9", "fastighet": "NAJADEN 14", "geo_shape": {"type": "Point", "coordinates": [12.691404441330148, 56.047224952675066]}, "kategori": "CAFE", "adress": "DROTTNINGGATAN 7"}, "geometry": {"type": "Point", "coordinates": [12.691404441330148, 56.047224952675066]}, "record_timestamp": "2018-07-25T13:18:00+02:00"},{"datasetid": "smileygodkanda-platser-i-helsingborg", "recordid": "357fc849334ad615a56059f487b54952fb40aea4", "fields": {"objectid": 174, "geo_point_2d": [56.12881164235943, 12.639787766073152], "namn": "BEREDSKAPSMUSEET", "kategori_text": "Caf\u00e9", "fastighet": "DJURAMOSSA 7:1", "geo_shape": {"type": "Point", "coordinates": [12.639787766073152, 56.12881164235943]}, "kategori": "CAFE", "adress": "DJURAMOSSAV\u00c4GEN 162"}, "geometry": {"type": "Point", "coordinates": [12.639787766073152, 56.12881164235943]}, "record_timestamp": "2018-07-25T13:18:00+02:00"},{"datasetid": "smileygodkanda-platser-i-helsingborg", "recordid": "5fdf009bac924196045ffd5d668960165f1aac6b", "fields": {"objectid": 179, "geo_point_2d": [56.101654740811874, 12.755075663482586], "namn": "SVENSG\u00c5RD", "kategori_text": "Caf\u00e9", "fastighet": "ALTER\u00c4LVEN 1", "geo_shape": {"type": "Point", "coordinates": [12.755075663482586, 56.101654740811874]}, "kategori": "CAFE", "adress": "BJ\u00d6RKAV\u00c4GEN 36"}, "geometry": {"type": "Point", "coordinates": [12.755075663482586, 56.101654740811874]}, "record_timestamp": "2018-07-25T13:18:00+02:00"},{"datasetid": "smileygodkanda-platser-i-helsingborg", "recordid": "4f16913d19991af7699d47b443078699aaee87f3", "fields": {"objectid": 180, "geo_point_2d": [56.108742337676716, 12.690831512156722], "namn": "ALLERUMS F\u00d6RSAMLINGSHEM", "kategori_text": "Caf\u00e9", "fastighet": "ALLERUM 13:1", "geo_shape": {"type": "Point", "coordinates": [12.690831512156722, 56.108742337676716]}, "kategori": "CAFE", "adress": "ALLERUMS KYRKV\u00c4G 3"}, "geometry": {"type": "Point", "coordinates": [12.690831512156722, 56.108742337676716]}, "record_timestamp": "2018-07-25T13:18:00+02:00"},{"datasetid": "smileygodkanda-platser-i-helsingborg", "recordid": "c033ae5fc6f38d1a5db4da35262bc05a0881da55", "fields": {"objectid": 190, "adress": "BRUKSGATAN 15", "geo_point_2d": [56.04491013110222, 12.696674900838472], "namn": "ESPRESSO HOUSE", "kategori_text": "Caf\u00e9", "fastighet": "KARL XI NORRA 30", "geo_shape": {"type": "Point", "coordinates": [12.696674900838472, 56.04491013110222]}, "kategori": "CAFE", "hemsida": "www.espressohouse.se"}, "geometry": {"type": "Point", "coordinates": [12.696674900838472, 56.04491013110222]}, "record_timestamp": "2018-07-25T13:18:00+02:00"}]